{"deviceId":"Charles","timestamp":"2017-09-17T17:50:54","airspeed":384.0,"heading":0.0,"altitude":30000.0,"latitude":37.24,"longitude":-115.81,"pitch":1.0,"roll":-2.27,"temperature":22.9,"humidity":62.9}
{"deviceId":"Charles","timestamp":"2017-09-17T17:50:56","airspeed":384.0,"heading":0.0,"altitude":30000.0,"latitude":37.25,"longitude":-115.81,"pitch":1.0,"roll":-2.27,"temperature":22.9,"humidity":62.9}
{"deviceId":"Charles","timestamp":"2017-09-17T17:50:58","airspeed":384.0,"heading":0.0,"altitude":30000.0,"latitude":37.26,"longitude":-115.81,"pitch":1.0,"roll":-2.27,"temperature":22.9,"humidity":62.9}
{"deviceId":"Charles","timestamp":"2017-09-17T17:51:00","airspeed":384.0,"heading":0.0,"altitude":30000.0,"latitude":37.27,"longitude":-115.81,"pitch":1.0,"roll":-2.27,"temperature":22.9,"humidity":62.9}
{"deviceId":"Charles","timestamp":"2017-09-17T17:51:02","airspeed":384.0,"heading":0.0,"altitude":30000.0,"latitude":37.28,"longitude":-115.81,"pitch":1.0,"roll":-2.27,"temperature":22.9,"humidity":62.9}
{"deviceId":"Charles","timestamp":"2017-09-17T17:51:04","airspeed":384.0,"heading":0.0,"altitude":30000.0,"latitude":37.29,"longitude":-115.81,"pitch":1.0,"roll":-2.27,"temperature":22.9,"humidity":62.9}
{"deviceId":"Charles","timestamp":"2017-09-17T17:51:06","airspeed":384.0,"heading":0.0,"altitude":30000.0,"latitude":37.30,"longitude":-115.81,"pitch":1.0,"roll":-2.27,"temperature":22.9,"humidity":62.9}
{"deviceId":"Charles","timestamp":"2017-09-17T17:51:08","airspeed":384.0,"heading":0.0,"altitude":30000.0,"latitude":37.31,"longitude":-115.81,"pitch":1.0,"roll":-2.27,"temperature":22.9,"humidity":62.9}
{"deviceId":"Charles","timestamp":"2017-09-17T17:51:10","airspeed":384.0,"heading":0.0,"altitude":30000.0,"latitude":37.32,"longitude":-115.81,"pitch":1.0,"roll":-2.27,"temperature":22.9,"humidity":62.9}
{"deviceId":"Charles","timestamp":"2017-09-17T17:51:12","airspeed":384.0,"heading":0.0,"altitude":30000.0,"latitude":37.33,"longitude":-115.81,"pitch":1.0,"roll":-2.27,"temperature":22.9,"humidity":62.9}

{"deviceId":"Amelia","timestamp":"2017-09-17T17:50:55","airspeed":384.0,"heading":270.0,"altitude":32500.0,"latitude":37.28,"longitude":-115.75,"pitch":0.0,"roll":2.27,"temperature":22.9,"humidity":62.9}
{"deviceId":"Amelia","timestamp":"2017-09-17T17:50:57","airspeed":384.0,"heading":270.0,"altitude":32500.0,"latitude":37.28,"longitude":-115.76,"pitch":0.0,"roll":2.27,"temperature":22.9,"humidity":62.9}
{"deviceId":"Amelia","timestamp":"2017-09-17T17:50:59","airspeed":384.0,"heading":270.0,"altitude":32500.0,"latitude":37.28,"longitude":-115.77,"pitch":0.0,"roll":2.27,"temperature":22.9,"humidity":62.9}
{"deviceId":"Amelia","timestamp":"2017-09-17T17:51:01","airspeed":384.0,"heading":270.0,"altitude":32500.0,"latitude":37.28,"longitude":-115.78,"pitch":0.0,"roll":2.27,"temperature":22.9,"humidity":62.9}
{"deviceId":"Amelia","timestamp":"2017-09-17T17:51:03","airspeed":384.0,"heading":270.0,"altitude":32500.0,"latitude":37.28,"longitude":-115.79,"pitch":0.0,"roll":2.27,"temperature":22.9,"humidity":62.9}
{"deviceId":"Amelia","timestamp":"2017-09-17T17:51:05","airspeed":384.0,"heading":270.0,"altitude":32500.0,"latitude":37.28,"longitude":-115.80,"pitch":0.0,"roll":2.27,"temperature":22.9,"humidity":62.9}
{"deviceId":"Amelia","timestamp":"2017-09-17T17:51:07","airspeed":384.0,"heading":270.0,"altitude":32500.0,"latitude":37.28,"longitude":-115.81,"pitch":0.0,"roll":2.27,"temperature":22.9,"humidity":62.9}
{"deviceId":"Amelia","timestamp":"2017-09-17T17:51:09","airspeed":384.0,"heading":270.0,"altitude":32500.0,"latitude":37.28,"longitude":-115.82,"pitch":0.0,"roll":2.27,"temperature":22.9,"humidity":62.9}
{"deviceId":"Amelia","timestamp":"2017-09-17T17:51:11","airspeed":384.0,"heading":270.0,"altitude":32500.0,"latitude":37.28,"longitude":-115.83,"pitch":0.0,"roll":2.27,"temperature":22.9,"humidity":62.9}
{"deviceId":"Amelia","timestamp":"2017-09-17T17:51:13","airspeed":384.0,"heading":270.0,"altitude":32500.0,"latitude":37.28,"longitude":-115.84,"pitch":0.0,"roll":2.27,"temperature":22.9,"humidity":62.9}